{"type":"FeatureCollection","features":[{"type":"Feature","properties":{"marker-color":"#7e7e7e","marker-size":"medium","marker-symbol":"","Name":"Whitetail"},"geometry":{"type":"Point","coordinates":[-77.93415784835815,39.7412173514963]}},{"type":"Feature","properties":{"marker-color":"#7e7e7e","marker-size":"medium","marker-symbol":"","Name":"Roundtop Mountain Resort"},"geometry":{"type":"Point","coordinates":[-76.92599058151245,40.10906291689112]}},{"type":"Feature","properties":{"marker-color":"#7e7e7e","marker-size":"medium","marker-symbol":"","Name":"Liberty Mountain Resort"},"geometry":{"type":"Point","coordinates":[-77.37492799758911,39.763422313690086]}},{"type":"Feature","properties":{"marker-color":"#7e7e7e","marker-size":"medium","marker-symbol":"","Name":"Okemo Ski Resort"},"geometry":{"type":"Point","coordinates":[-72.71754026412964,43.402178988356845]}},{"type":"Feature","properties":{"marker-color":"#7e7e7e","marker-size":"medium","marker-symbol":"","name":"阿勃勒","image":"images/GoldenShowerTree.JPG"},"geometry":{"type":"Point","coordinates":[120.67973971366882,24.12386480952657]}},{"type":"Feature","properties":{"marker-color":"#7e7e7e","marker-size":"medium","marker-symbol":"","name":"Grinnell Glacier","image":""},"geometry":{"type":"Point","coordinates":[246.27081871032715,48.76037588826086]}},{"type":"Feature","properties":{"marker-color":"#7e7e7e","marker-size":"medium","marker-symbol":"","name":"Many Glacier","image":""},"geometry":{"type":"Point","coordinates":[246.34283065795898,48.798284598317906]}},{"type":"Feature","properties":{"marker-color":"#7e7e7e","marker-size":"medium","marker-symbol":"","name":"Fossil Beach","Image":""},"geometry":{"type":"Point","coordinates":[283.1444174051285,38.16722890989125]}},{"type":"Feature","properties":{"marker-color":"#7e7e7e","marker-size":"medium","marker-symbol":"","name":"蘭嶼烏心石","image":"images/蘭嶼烏心石.JPG"},"geometry":{"type":"Point","coordinates":[120.67510485649109,24.12104228551498]}},{"type":"Feature","properties":{"marker-color":"#7e7e7e","marker-size":"medium","marker-symbol":"","name":"蒲葵","image":"images/蒲葵.JPG"},"geometry":{"type":"Point","coordinates":[120.67780315876007,24.123500063612834]}},{"type":"Feature","properties":{"marker-color":"#7e7e7e","marker-size":"medium","marker-symbol":"","name":"第倫桃","image":"images/第倫桃.JPG"},"geometry":{"type":"Point","coordinates":[120.67794799804686,24.123504959538018]}},{"type":"Feature","properties":{"marker-color":"#7e7e7e","marker-size":"medium","marker-symbol":"","name":"猴面果","image":"images/猴面果.JPG"},"geometry":{"type":"Point","coordinates":[120.67494660615921,24.11954164679192]}},{"type":"Feature","properties":{"marker-color":"#7e7e7e","marker-size":"medium","marker-symbol":"","name":"拔蕉","image":"images/拔蕉.JPG"},"geometry":{"type":"Point","coordinates":[120.67515715956688,24.119698321151816]}},{"type":"Feature","properties":{"marker-color":"#7e7e7e","marker-size":"medium","marker-symbol":"","name":"藍花楹","image":"images/藍花楹.JPG"},"geometry":{"type":"Point","coordinates":[120.67489698529243,24.12149]}},{"type":"Feature","properties":{"marker-color":"#7e7e7e","marker-size":"medium","marker-symbol":"","name":"澳洲檫樹","image":"images/澳洲檫樹.JPG"},"geometry":{"type":"Point","coordinates":[120.6771259009838,24.12207166943813]}}]}